[
    {"establish":"2018","city":"Dubai","Size":"180000","longtitude":"55.29779","latitude":"25.25762","log_CN":"103.33331","lag_CN":"35.12050"},
    {"establish":"1998","city":"Johannesburg, South Africa","Size":"350000","longtitude":"28.10198","latitude":"-26.17598","log_CN":"103.33331","lag_CN":"35.12050"},
    {"establish":"1980","city":"New York","Size":"735019","longtitude":"-73.99757","latitude":"40.71659","log_CN":"103.33331","lag_CN":"35.12050"},
    {"establish":"1980","city":"Buenos, Aires","Size":"120000","longtitude":"-58.45081","latitude":"-34.55716","log_CN":"103.33331","lag_CN":"35.12050"},
    {"establish":"1970","city":"Paris, France","Size":"270000","longtitude":"2.36488","latitude":"48.82359","log_CN":"103.33331","lag_CN":"35.12050"},
    {"establish":"1970","city":"Panama City, Panama","Size":"200000","longtitude":"-79.41054","latitude":"9.20368","log_CN":"103.33331","lag_CN":"35.12050"},
    {"establish":"1970","city":"London,UK","Size":"124250","longtitude":"-0.09951","latitude":"51.52752","log_CN":"103.33331","lag_CN":"35.12050"},
    {"establish":"1970","city":"Auckland, New Zealand","Size":"118230","longtitude":"174.78627","latitude":"-36.84693","log_CN":"103.33331","lag_CN":"35.12050"},
    {"establish":"1950","city":"Toronto, Canada","Size":"531635","longtitude":"-79.39407","latitude":"43.65776","log_CN":"103.33331","lag_CN":"35.12050"},
    {"establish":"1950","city":"Lima,Peru","Size":"1000000","longtitude":"-77.02607","latitude":"-12.05170","log_CN":"103.33331","lag_CN":"35.12050"},
    {"establish":"1950","city":"Boston","Size":"123000","longtitude":"-71.06328","latitude":"42.34839","log_CN":"103.33331","lag_CN":"35.12050"},
    {"establish":"1938","city":"Los Angela","Size":"566968","longtitude":"-118.24210","latitude":"34.06171","log_CN":"103.33331","lag_CN":"35.12050"},
    {"establish":"1920","city":"Milan, Italy","Size":"21000","longtitude":"9.19943","latitude":"45.45496","log_CN":"103.33331","lag_CN":"35.12050"},
    {"establish":"1920","city":"Sydney,Australia","Size":"487976","longtitude":"-118.24312","latitude":"-33.84867","log_CN":"103.33331","lag_CN":"35.12050"},
    {"establish":"1900","city":"Vancouver, Canada","Size":"411470","longtitude":"-123.09769","latitude":"49.28158","log_CN":"103.33331","lag_CN":"35.12050"},
    {"establish":"1884","city":"Incheon, South Korea","Size":"10000","longtitude":"127.23571","latitude":"37.55832","log_CN":"103.33331","lag_CN":"35.12050"},
    {"establish":"1859","city":"Yokohama, Japan","Size":"35590","longtitude":"139.63601","latitude":"127.23571","log_CN":"103.33331","lag_CN":"35.12050"},
    {"establish":"1850","city":"Antananarivo, Madagascar","Size":"100000","longtitude":"47.52215","latitude":"-18.89565","log_CN":"103.33331","lag_CN":"35.12050"},
    {"establish":"1850","city":"Melbourne, Australia","Size":"356324","longtitude":"-73.58821","latitude":"45.52096","log_CN":"103.33331","lag_CN":"35.12050"},
    {"establish":"1849","city":"Kolkata,India","Size":"75000","longtitude":"88.35665","latitude":"22.57949","log_CN":"103.33331","lag_CN":"35.12050"},
    {"establish":"1848","city":"San Francisco","Size":"629243","longtitude":"-122.41639","latitude":"37.79370","log_CN":"103.33331","lag_CN":"35.12050"},
    {"establish":"1847","city":"Havana, Cuba","Size":"500","longtitude":"82.32541","latitude":"23.12102","log_CN":"103.33331","lag_CN":"35.12050"},
    {"establish":"1820","city":"Singapore","Size":"2571000","longtitude":"103.84569","latitude":"1.28303","log_CN":"103.33331","lag_CN":"35.12050"},
    {"establish":"1800","city":"Kuala Lumpur","Size":"686488","longtitude":"101.69243","latitude":"3.12934","log_CN":"103.33331","lag_CN":"35.12050"},
    {"establish":"1782","city":"Bangkok, Thailand","Size":"650000","longtitude":"100.53405","latitude":"13.74499","log_CN":"103.33331","lag_CN":"35.12050"},
    {"establish":"1740","city":"Jakarta, Indonesia","Size":"631650","longtitude":"106.83759","latitude":"-6.18048","log_CN":"103.33331","lag_CN":"35.12050"},
    {"establish":"1594","city":"Manila, Philippines","Size":"1350000","longtitude":"120.98689","latitude":"14.59327","log_CN":"103.33331","lag_CN":"35.12050"},
    {"establish":"","city":"","Size":"","longtitude":"","latitude":"","log_CN":"","lag_CN":""}
    ]